{
  "metadata": {
    "week_start": "2026-02-16",
    "week_end": "2026-02-22",
    "source_url": "https://www.pharmaciens.tg/on-call",
    "last_updated": "2026-02-18T10:00:00Z"
  },
  "zones": [
    {
      "zone_id": "A2",
      "zone_code": "ZONE A2",
      "zone_name": "CENTRE VILLE ET BE",
      "city": "Lomé",
      "pharmacies": [
        {
          "id": "pharm_sainte_rita_a2",
          "name": "Pharmacie Sainte Rita",
          "address": "Rue pavée Doulassamé Face Hotel SANA",
          "phone": "+22896800970",
          "phone_formatted": "+228 96 80 09 70",
          "insurances": [],
          "coordinates": { "latitude": null, "longitude": null },
          "is_24h": false
        },
        {
          "id": "pharm_be_kpehenou_a2",
          "name": "Pharmacie Be Kpehenou",
          "address": "Boulevard Félix HOUPHOUET - BOIGNY à Bè Kpéhénou",
          "phone": "+22870452503",
          "phone_formatted": "+228 70 45 25 03",
          "insurances": [],
          "coordinates": { "latitude": null, "longitude": null },
          "is_24h": false
        }
      ]
    },
    {
      "zone_id": "A1",
      "zone_code": "ZONE A1",
      "zone_name": "CENTRE VILLE ET BE",
      "city": "Lomé",
      "pharmacies": [
        {
          "id": "pharm_matthia_a1",
          "name": "Pharmacie Matthia",
          "address": "1048 Avenue de la Libération",
          "phone": "+22822212964",
          "phone_formatted": "+228 22 21 29 64",
          "insurances": [],
          "coordinates": { "latitude": null, "longitude": null },
          "is_24h": false
        },
        {
          "id": "pharm_sante_a1",
          "name": "Pharmacie Sante",
          "address": "Pres de NOPATO",
          "phone": "+22870449137",
          "phone_formatted": "+228 70 44 91 37",
          "insurances": [],
          "coordinates": { "latitude": null, "longitude": null },
          "is_24h": false
        }
      ]
    },
    {
      "zone_id": "DAPAONG",
      "zone_code": "Dapaong",
      "zone_name": "Dapaong",
      "city": "Dapaong",
      "pharmacies": [
        {
          "id": "pharm_sauveur_dapaong",
          "name": "Pharmacie Sauveur",
          "address": "non loin ECOBANK DAPAONG",
          "phone": "",
          "phone_formatted": "",
          "insurances": [],
          "coordinates": { "latitude": null, "longitude": null },
          "is_24h": false
        },
        {
          "id": "pharm_tone_dapaong",
          "name": "Pharmacie Tone",
          "address": "A coté du PSI Dapaong",
          "phone": "+22870210758",
          "phone_formatted": "+228 70 21 07 58",
          "insurances": ["INAM"],
          "coordinates": { "latitude": null, "longitude": null },
          "is_24h": false
        }
      ]
    }
  ],
  "cities": [
    {
      "name": "Lomé",
      "zones": ["A1", "A2"],
      "pharmacy_count": 4
    },
    {
      "name": "Dapaong",
      "zones": ["DAPAONG"],
      "pharmacy_count": 2
    }
  ]
}
