{
  "metadata": {
    "week_start": "2024-07-22",
    "week_end": "2024-07-28",
    "source_url": "https://www.pharmaciens.tg/on-call",
    "last_updated": "2024-07-25T18:00:00Z"
  },
  "zones": [
    {
      "zone_id": "LOME_A",
      "zone_code": "LOMÉ ZONE A",
      "zone_name": "CENTRE VILLE ET BE",
      "city": "Lomé",
      "pharmacies": [
        {
          "id": "pharm_sainte_rita",
          "name": "Pharmacie SAINTE RITA",
          "address": "Rue pavée Doulassamé Face Hotel SANA",
          "phone": "+22896800970",
          "phone_formatted": "+228 96 80 09 70",
          "insurances": [],
          "coordinates": { "latitude": null, "longitude": null },
          "is_24h": false
        },
        {
          "id": "pharm_be_kpehenou",
          "name": "Pharmacie BE KPEHENOU",
          "address": "Boulevard Félix HOUPHOUET - BOIGNY à Bè Kpéhénou",
          "phone": "+22870452503",
          "phone_formatted": "+228 70 45 25 03",
          "insurances": [],
          "coordinates": { "latitude": null, "longitude": null },
          "is_24h": false
        },
        {
          "id": "pharm_matthia",
          "name": "Pharmacie MATTHIA",
          "address": "1048 Avenue de la Libération",
          "phone": "+22822212964",
          "phone_formatted": "+228 22 21 29 64",
          "insurances": [],
          "coordinates": { "latitude": null, "longitude": null },
          "is_24h": false
        },
        {
          "id": "pharm_des_oliviers",
          "name": "Pharmacie DES OLIVIERS",
          "address": "01 Rue du Rotary Club international angle Bd Felix Houphët-Boigny",
          "phone": "+22896800950",
          "phone_formatted": "+228 96 80 09 50",
          "insurances": ["AMU", "INAM", "CNSS", "SANLAM"],
          "coordinates": { "latitude": null, "longitude": null },
          "is_24h": false
        }
      ]
    },
    {
        "zone_id": "LOME_B",
        "zone_code": "LOMÉ ZONE B",
        "zone_name": "KODJOVIAKOPE-NYEKONAKPOE-TOKOIN",
        "city": "Lomé",
        "pharmacies": [
            {
                "id": "pharm_emmanuel",
                "name": "Pharmacie EMMANUEL",
                "address": "637 Av Duisbourg Face MIVIP Kodjoviakopé",
                "phone": "+22890099403",
                "phone_formatted": "+228 90 09 94 03",
                "insurances": ["CNSS", "INAM", "GRAS SAVOYE", "GTA-C2A", "GCA", "SUNU"],
                "coordinates": {"latitude": null, "longitude": null},
                "is_24h": false
            },
            {
                "id": "pharm_ave_maria",
                "name": "Pharmacie AVE MARIA",
                "address": "Face ENSF (Ecole Nationale des Sages Femmes) près du CHU Tokoin",
                "phone": "+22822223301",
                "phone_formatted": "+228 22 22 33 01",
                "insurances": [],
                "coordinates": {"latitude": null, "longitude": null},
                "is_24h": false
            }
        ]
    }
  ],
  "cities": [
    {
      "name": "Lomé",
      "zones": ["LOME_A", "LOME_B"],
      "pharmacy_count": 6
    }
  ]
}
