{
  "metadata": {
    "week_start": "2024-07-22",
    "week_end": "2024-07-28",
    "source_url": "https://www.pharmaciens.tg/on-call",
    "last_updated": "2024-07-23T10:00:00Z"
  },
  "zones": [
    {
      "zone_id": "A2",
      "zone_code": "ZONE A2",
      "zone_name": "CENTRE VILLE ET BE",
      "city": "Lomé",
      "pharmacies": [
        {
          "id": "pharm_pharmacie_sainte_rita_a2",
          "name": "Pharmacie Sainte Rita",
          "address": "Rue pavée Doulassamé Face Hotel SANA",
          "phone": "+22896800970",
          "phone_formatted": "+228 96 80 09 70",
          "insurances": [],
          "coordinates": { "latitude": null, "longitude": null },
          "is_24h": false
        },
        {
          "id": "pharm_pharmacie_be_kpehenou_a2",
          "name": "Pharmacie Be Kpehenou",
          "address": "Boulevard Félix HOUPHOUET - BOIGNY à Bè Kpéhénou",
          "phone": "+22870452503",
          "phone_formatted": "+228 70 45 25 03",
          "insurances": [],
          "coordinates": { "latitude": null, "longitude": null },
          "is_24h": false
        }
      ]
    },
    {
      "zone_id": "A1",
      "zone_code": "ZONE A1",
      "zone_name": "CENTRE VILLE ET BE",
      "city": "Lomé",
      "pharmacies": [
        {
          "id": "pharm_pharmacie_matthia_a1",
          "name": "Pharmacie Matthia",
          "address": "1048 Avenue de la Libération",
          "phone": "+22822212964",
          "phone_formatted": "+228 22 21 29 64",
          "insurances": [],
          "coordinates": { "latitude": null, "longitude": null },
          "is_24h": false
        },
        {
          "id": "pharm_pharmacie_sante_a1",
          "name": "Pharmacie Sante",
          "address": "Pres de NOPATO",
          "phone": "+22870449137",
          "phone_formatted": "+228 70 44 91 37",
          "insurances": [],
          "coordinates": { "latitude": null, "longitude": null },
          "is_24h": false
        }
      ]
    },
    {
      "zone_id": "A4",
      "zone_code": "ZONE A4",
      "zone_name": "CENTRE VILLE ET BE",
      "city": "Lomé",
      "pharmacies": [
        {
          "id": "pharm_pharmacie_des_oliviers_a4",
          "name": "Pharmacie Des Oliviers",
          "address": "01 Rue du Rotary Club international angle Bd Felix Houphët-Boigny 08 BP 8480 Lomé 08 TOGO",
          "phone": "+22896800950",
          "phone_formatted": "+228 96 80 09 50",
          "insurances": ["Amu", "Cnss", "Inam", "Sanlam"],
          "coordinates": { "latitude": null, "longitude": null },
          "is_24h": false
        }
      ]
    },
    {
      "zone_id": "A5",
      "zone_code": "ZONE A5",
      "zone_name": "CENTRE VILLE ET BE",
      "city": "Lomé",
      "pharmacies": [
        {
          "id": "pharm_pharmacie_eclair_a5",
          "name": "Pharmacie Eclair",
          "address": "Rue Avénou BE Ahligo dans le prolongement du Marché de Ahligo",
          "phone": "+22896800906",
          "phone_formatted": "+228 96 80 09 06",
          "insurances": [],
          "coordinates": { "latitude": null, "longitude": null },
          "is_24h": false
        }
      ]
    },
    {
      "zone_id": "B1",
      "zone_code": "ZONE B1",
      "zone_name": "KODJOVIAKOPE-NYEKONAKPOE-TOKOIN HOPITAL- TOKOIN GBADAGO",
      "city": "Lomé",
      "pharmacies": [
        {
          "id": "pharm_pharmacie_emmanuel_b1",
          "name": "Pharmacie Emmanuel",
          "address": "637 Av Duisbourg Face MIVIP Kodjoviakopé",
          "phone": "+22890099403",
          "phone_formatted": "+228 90 09 94 03",
          "insurances": ["Cnss", "Gca", "Gras Savoye", "Gta-C2a", "Inam", "Sunu"],
          "coordinates": { "latitude": null, "longitude": null },
          "is_24h": false
        }
      ]
    },
    {
      "zone_id": "B2",
      "zone_code": "ZONE B2",
      "zone_name": "KODJOVIAKOPE-NYEKONAKPOE-TOKOIN HOPITAL- TOKOIN GBADAGO",
      "city": "Lomé",
      "pharmacies": [
        {
          "id": "pharm_pharmacie_ave_maria_b2",
          "name": "Pharmacie Ave Maria",
          "address": "Face ENSF ( Ecole Nationale des Sages Femmes ) près du CHU Tokoin",
          "phone": "+22822223301",
          "phone_formatted": "+228 22 22 33 01",
          "insurances": [],
          "coordinates": { "latitude": null, "longitude": null },
          "is_24h": false
        }
      ]
    },
    {
      "zone_id": "B4",
      "zone_code": "ZONE B4",
      "zone_name": "KODJOVIAKOPE-NYEKONAKPOE-TOKOIN HOPITAL- TOKOIN GBADAGO",
      "city": "Lomé",
      "pharmacies": [
        {
          "id": "pharm_pharmacie_agbegnigan_b4",
          "name": "Pharmacie Agbegnigan",
          "address": "Tokoin Ramco- Gbadago Av de la Libération près du PRET A MANGER",
          "phone": "+22870200000",
          "phone_formatted": "+228 70 20 00 00",
          "insurances": [],
          "coordinates": { "latitude": null, "longitude": null },
          "is_24h": false
        }
      ]
    },
    {
      "zone_id": "B3",
      "zone_code": "ZONE B3",
      "zone_name": "KODJOVIAKOPE-NYEKONAKPOE-TOKOIN HOPITAL- TOKOIN GBADAGO",
      "city": "Lomé",
      "pharmacies": [
        {
          "id": "pharm_pharmacie_gbossime_b3",
          "name": "Pharmacie Gbossime",
          "address": "Non loin du Marché de Gbossime sur le Boulevard de la KARA",
          "phone": "+22892476121",
          "phone_formatted": "+228 92 47 61 21",
          "insurances": [],
          "coordinates": { "latitude": null, "longitude": null },
          "is_24h": false
        }
      ]
    },
    {
      "zone_id": "C5",
      "zone_code": "ZONE C5",
      "zone_name": "N'KAFU- HEDZRANAWOE-KEGUE-TOKOIN TAME- FOREVER-CAMPUS",
      "city": "Lomé",
      "pharmacies": [
        {
          "id": "pharm_pharmacie_klokpe_c5",
          "name": "Pharmacie Klokpe",
          "address": "Derrière la Foire Togo 2000",
          "phone": "+22896801003",
          "phone_formatted": "+228 96 80 10 03",
          "insurances": [],
          "coordinates": { "latitude": null, "longitude": null },
          "is_24h": false
        }
      ]
    },
    {
      "zone_id": "C2",
      "zone_code": "ZONE C2",
      "zone_name": "N'KAFU- HEDZRANAWOE-KEGUE-TOKOIN TAME- FOREVER-CAMPUS",
      "city": "Lomé",
      "pharmacies": [
        {
          "id": "pharm_pharmacie_providence_c2",
          "name": "Pharmacie Providence",
          "address": "Bd Jean Paul II",
          "phone": "+22891148888",
          "phone_formatted": "+228 91 14 88 88",
          "insurances": [],
          "coordinates": { "latitude": null, "longitude": null },
          "is_24h": false
        }
      ]
    },
    {
      "zone_id": "C1",
      "zone_code": "ZONE C1",
      "zone_name": "N'KAFU- HEDZRANAWOE-KEGUE-TOKOIN TAME- FOREVER-CAMPUS",
      "city": "Lomé",
      "pharmacies": [
        {
          "id": "pharm_pharmacie_univers_sante_c1",
          "name": "Pharmacie Univers-Sante",
          "address": "Bd GNASSINGBE Eyadéma Cité OUA face a l'entrée du CHU CAMPUS",
          "phone": "+22893888331",
          "phone_formatted": "+228 93 88 83 31",
          "insurances": [],
          "coordinates": { "latitude": null, "longitude": null },
          "is_24h": false
        }
      ]
    },
    {
      "zone_id": "C3",
      "zone_code": "ZONE C3",
      "zone_name": "N'KAFU- HEDZRANAWOE-KEGUE-TOKOIN TAME- FOREVER-CAMPUS",
      "city": "Lomé",
      "pharmacies": [
        {
          "id": "pharm_pharmacie_aeroport_c3",
          "name": "Pharmacie Aeroport",
          "address": "Rte de l'Aéroport SITO",
          "phone": "+22822262122",
          "phone_formatted": "+228 22 26 21 22",
          "insurances": [],
          "coordinates": { "latitude": null, "longitude": null },
          "is_24h": false
        },
        {
          "id": "pharm_pharmacie_internationale_c3",
          "name": "Pharmacie Internationale",
          "address": "Sise Marché de Hédzranawoé Assiyéyé Boulevard du Haho",
          "phone": "+22822268994",
          "phone_formatted": "+228 22 26 89 94",
          "insurances": [],
          "coordinates": { "latitude": null, "longitude": null },
          "is_24h": false
        }
      ]
    },
    {
      "zone_id": "C4",
      "zone_code": "ZONE C4",
      "zone_name": "N'KAFU- HEDZRANAWOE-KEGUE-TOKOIN TAME- FOREVER-CAMPUS",
      "city": "Lomé",
      "pharmacies": [
        {
          "id": "pharm_pharmacie_des_lilas_c4",
          "name": "Pharmacie Des Lilas",
          "address": "123 HDN 07 Route de Kégué Boulevard Jean Paul II prolongé",
          "phone": "+22896165589",
          "phone_formatted": "+228 96 16 55 89",
          "insurances": [],
          "coordinates": { "latitude": null, "longitude": null },
          "is_24h": false
        }
      ]
    },
    {
      "zone_id": "D1",
      "zone_code": "ZONE D1",
      "zone_name": "BE KPOTA- ZORRO BAR - ADAKPAME",
      "city": "Lomé",
      "pharmacies": [
        {
          "id": "pharm_pharmacie_christ_roi_d1",
          "name": "Pharmacie Christ Roi",
          "address": "KAGOME",
          "phone": "+22822274666",
          "phone_formatted": "+228 22 27 46 66",
          "insurances": [],
          "coordinates": { "latitude": null, "longitude": null },
          "is_24h": false
        },
        {
          "id": "pharm_pharmacie_maelys_d1",
          "name": "Pharmacie Maëlys",
          "address": "1688 Bd Malfakassa BE KPOTA en face de NETADI",
          "phone": "+22870448679",
          "phone_formatted": "+228 70 44 86 79",
          "insurances": [],
          "coordinates": { "latitude": null, "longitude": null },
          "is_24h": false
        },
        {
          "id": "pharm_pharmacie_misericorde_d1",
          "name": "Pharmacie Miséricorde",
          "address": "BE KPOTA a 300m de NISSAN A coté de la station MRS",
          "phone": "+22896800945",
          "phone_formatted": "+228 96 80 09 45",
          "insurances": [],
          "coordinates": { "latitude": null, "longitude": null },
          "is_24h": false
        }
      ]
    },
    {
      "zone_id": "E1",
      "zone_code": "ZONE E1",
      "zone_name": "ADIDOGOME- SAGBADO- APEDOKOE",
      "city": "Lomé",
      "pharmacies": [
        {
          "id": "pharm_pharmacie_de_la_cite_e1",
          "name": "Pharmacie De La Cite",
          "address": "Boulevard du 30 Aout lomé",
          "phone": "+22822250125",
          "phone_formatted": "+228 22 25 01 25",
          "insurances": [],
          "coordinates": { "latitude": null, "longitude": null },
          "is_24h": false
        },
        {
          "id": "pharm_pharmacie_epiphania_e1",
          "name": "Pharmacie Epiphania",
          "address": "Rue de La Pampa Carrefour AGBEMADON ADIDOGOME",
          "phone": "+22870401052",
          "phone_formatted": "+228 70 40 10 52",
          "insurances": [],
          "coordinates": { "latitude": null, "longitude": null },
          "is_24h": false
        }
      ]
    },
    {
      "zone_id": "E2",
      "zone_code": "ZONE E2",
      "zone_name": "ADIDOGOME- SAGBADO- APEDOKOE",
      "city": "Lomé",
      "pharmacies": [
        {
          "id": "pharm_pharmacie_besda_e2",
          "name": "Pharmacie Besda",
          "address": "Route de Kpalimé Adidogomé Aménopé",
          "phone": "+22870426825",
          "phone_formatted": "+228 70 42 68 25",
          "insurances": [],
          "coordinates": { "latitude": null, "longitude": null },
          "is_24h": false
        }
      ]
    },
    {
      "zone_id": "E3",
      "zone_code": "ZONE E3",
      "zone_name": "ADIDOGOME- SAGBADO- APEDOKOE",
      "city": "Lomé",
      "pharmacies": [
        {
          "id": "pharm_pharmacie_conseil_e3",
          "name": "Pharmacie Conseil",
          "address": "Carrefour CEG Sagbado Logoté",
          "phone": "+22893109292",
          "phone_formatted": "+228 93 10 92 92",
          "insurances": ["Transvie"],
          "coordinates": { "latitude": null, "longitude": null },
          "is_24h": false
        },
        {
          "id": "pharm_pharmacie_dodji_e3",
          "name": "Pharmacie Dodji",
          "address": "Ségbé Akato immeuble Akato plage non loin de l'Eglise Catholique d'Akato",
          "phone": "+22870291677",
          "phone_formatted": "+228 70 29 16 77",
          "insurances": ["Inam"],
          "coordinates": { "latitude": null, "longitude": null },
          "is_24h": false
        }
      ]
    },
    {
      "zone_id": "F1",
      "zone_code": "ZONE F1",
      "zone_name": "BE KLIKAME- DJIDJOLE-TOTSI- AGBALEPEDOGAN",
      "city": "Lomé",
      "pharmacies": [
        {
          "id": "pharm_pharmacie_du_point_e_f1",
          "name": "Pharmacie Du Point E",
          "address": "506 rue 129 Aflao Gakli kininiti gome a Djidjolé dans le von de la phcie Djidjolé",
          "phone": "+22890374596",
          "phone_formatted": "+228 90 37 45 96",
          "insurances": [],
          "coordinates": { "latitude": null, "longitude": null },
          "is_24h": false
        }
      ]
    },
    {
      "zone_id": "F2",
      "zone_code": "ZONE F2",
      "zone_name": "BE KLIKAME- DJIDJOLE-TOTSI- AGBALEPEDOGAN",
      "city": "Lomé",
      "pharmacies": [
        {
          "id": "pharm_pharmacie_verte_f2",
          "name": "Pharmacie Verte",
          "address": "Face Ecole du Parti Klikame",
          "phone": "+22891985017",
          "phone_formatted": "+228 91 98 50 17",
          "insurances": [],
          "coordinates": { "latitude": null, "longitude": null },
          "is_24h": false
        },
        {
          "id": "pharm_pharmacie_nation_f2",
          "name": "Pharmacie Nation",
          "address": "Face ancien marché de TOTSI",
          "phone": "+22896800947",
          "phone_formatted": "+228 96 80 09 47",
          "insurances": [],
          "coordinates": { "latitude": null, "longitude": null },
          "is_24h": false
        }
      ]
    },
    {
      "zone_id": "F3",
      "zone_code": "ZONE F3",
      "zone_name": "BE KLIKAME- DJIDJOLE-TOTSI- AGBALEPEDOGAN",
      "city": "Lomé",
      "pharmacies": [
        {
          "id": "pharm_pharmacie_delali_f3",
          "name": "Pharmacie Delali",
          "address": "En face de l'Hopital de Cacaveli a 100m entre la Cour d'Appel et le marché de Cacavéli",
          "phone": "+22893645372",
          "phone_formatted": "+228 93 64 53 72",
          "insurances": ["Inam", "Transvie"],
          "coordinates": { "latitude": null, "longitude": null },
          "is_24h": false
        }
      ]
    },
    {
      "zone_id": "G1",
      "zone_code": "ZONE G1",
      "zone_name": "AVEDJI-ADIDO ADIN -VAKPOSSITO- TELESSOU",
      "city": "Lomé",
      "pharmacies": [
        {
          "id": "pharm_pharmacie_laus_deo_g1",
          "name": "Pharmacie Laus Deo",
          "address": "Rte de Léo 2000 face clinique Besthesda Quartier Adido Adin",
          "phone": "+22893006575",
          "phone_formatted": "+228 93 00 65 75",
          "insurances": ["Transvie"],
          "coordinates": { "latitude": null, "longitude": null },
          "is_24h": false
        },
        {
          "id": "pharm_pharmacie_vitaflore_g1",
          "name": "Pharmacie Vitaflore",
          "address": "Agoe Vakpossito a 100m de la station Shell Agoe Vakpossito",
          "phone": "+22870402286",
          "phone_formatted": "+228 70 40 22 86",
          "insurances": [],
          "coordinates": { "latitude": null, "longitude": null },
          "is_24h": false
        }
      ]
    },
    {
      "zone_id": "G2",
      "zone_code": "ZONE G2",
      "zone_name": "AVEDJI-ADIDO ADIN -VAKPOSSITO- TELESSOU",
      "city": "Lomé",
      "pharmacies": [
        {
          "id": "pharm_pharmacie_maina_g2",
          "name": "Pharmacie Maina",
          "address": "Quartier AVEDJI non loin de l'Hôpital Source de Vie a 500m du Carrefour Y",
          "phone": "+22870436534",
          "phone_formatted": "+228 70 43 65 34",
          "insurances": [],
          "coordinates": { "latitude": null, "longitude": null },
          "is_24h": false
        }
      ]
    },
    {
      "zone_id": "G3",
      "zone_code": "ZONE G3",
      "zone_name": "AVEDJI-ADIDO ADIN -VAKPOSSITO- TELESSOU",
      "city": "Lomé",
      "pharmacies": [
        {
          "id": "pharm_pharmacie_adouni_g3",
          "name": "Pharmacie Adouni",
          "address": "Vakpossito Logogome près du carrefour AISED",
          "phone": "+22870393939",
          "phone_formatted": "+228 70 39 39 39",
          "insurances": ["Amu", "Ascoma", "Cnss", "Gca", "Gras Savoye", "Inam", "Msh", "Nsia", "Olea", "Sanlam", "Sunu", "Transvie"],
          "coordinates": { "latitude": null, "longitude": null },
          "is_24h": false
        },
        {
          "id": "pharm_pharmacie_iris_g3",
          "name": "Pharmacie Iris",
          "address": "Amadahome imm Havon A 500m de la station CAP Rue 50m a cote des Casses Auto",
          "phone": "+22891684804",
          "phone_formatted": "+228 91 68 48 04",
          "insurances": [],
          "coordinates": { "latitude": null, "longitude": null },
          "is_24h": false
        }
      ]
    },
    {
      "zone_id": "H2",
      "zone_code": "ZONE H2",
      "zone_name": "AGOENYIVE",
      "city": "Lomé",
      "pharmacies": [
        {
          "id": "pharm_pharmacie_nabine_h2",
          "name": "Pharmacie Nabine",
          "address": "Sise a Agoe Anome dit Plateau Route du Bar Plateau",
          "phone": "+22893362626",
          "phone_formatted": "+228 93 36 26 26",
          "insurances": [],
          "coordinates": { "latitude": null, "longitude": null },
          "is_24h": false
        }
      ]
    },
    {
      "zone_id": "H1",
      "zone_code": "ZONE H1",
      "zone_name": "AGOENYIVE",
      "city": "Lomé",
      "pharmacies": [
        {
          "id": "pharm_pharmacie_adonai_h1",
          "name": "Pharmacie Adonai",
          "address": "Face Hotel La Plantation a Agoe Nyivé",
          "phone": "+22822500405",
          "phone_formatted": "+228 22 50 04 05",
          "insurances": [],
          "coordinates": { "latitude": null, "longitude": null },
          "is_24h": false
        }
      ]
    },
    {
      "zone_id": "I1",
      "zone_code": "ZONE I1",
      "zone_name": "TOGBLEKOPE - ADETIKOPE",
      "city": "Lomé",
      "pharmacies": [
        {
          "id": "pharm_pharmacie_zongo_i1",
          "name": "Pharmacie Zongo",
          "address": "Togblékopé carrefour Hermann entre Orabank et la station Sanol Togblékopé",
          "phone": "+22870499655",
          "phone_formatted": "+228 70 49 96 55",
          "insurances": ["Amu", "Inam"],
          "coordinates": { "latitude": null, "longitude": null },
          "is_24h": false
        },
        {
          "id": "pharm_pharmacie_liddy_i1",
          "name": "Pharmacie Liddy",
          "address": "AGOE-DIKAME, Bernard Copé après la station CAP en face du Camp de tir",
          "phone": "+22870901960",
          "phone_formatted": "+228 70 90 19 60",
          "insurances": [],
          "coordinates": { "latitude": null, "longitude": null },
          "is_24h": false
        },
        {
          "id": "pharm_pharmacie_zilidji_i1",
          "name": "Pharmacie Zilidji",
          "address": "Derrière le marche d'agoè zongo",
          "phone": "+22892616608",
          "phone_formatted": "+228 92 61 66 08",
          "insurances": [],
          "coordinates": { "latitude": null, "longitude": null },
          "is_24h": false
        }
      ]
    },
    {
      "zone_id": "I2",
      "zone_code": "ZONE I2",
      "zone_name": "TOGBLEKOPE - ADETIKOPE",
      "city": "Lomé",
      "pharmacies": [
        {
          "id": "pharm_pharmacie_amen_i2",
          "name": "Pharmacie Amen",
          "address": "Marché d'Adéticopé près de l'Eglise Catholique Christ Roi",
          "phone": "+22890885588",
          "phone_formatted": "+228 90 88 55 88",
          "insurances": [],
          "coordinates": { "latitude": null, "longitude": null },
          "is_24h": false
        },
        {
          "id": "pharm_pharmacie_koboyo_i2",
          "name": "Pharmacie Koboyo",
          "address": "DAVIE, rte de la Nationale No 1 avant le péage de Davié en face de la Station Sanol",
          "phone": "+22893704812",
          "phone_formatted": "+228 93 70 48 12",
          "insurances": ["Amu", "Fidelia Assurance", "Gta-C2a", "Inam", "La Citoyenne", "Olea", "Sanlam", "Sunu"],
          "coordinates": { "latitude": null, "longitude": null },
          "is_24h": false
        }
      ]
    },
    {
      "zone_id": "J1",
      "zone_code": "ZONE J1",
      "zone_name": "AGOE ASSIYEYE - DEMAKPOE-LOGOPE- MINAMADOU",
      "city": "Lomé",
      "pharmacies": [
        {
          "id": "pharm_pharmacie_excellence_j1",
          "name": "Pharmacie Excellence",
          "address": "AGOE Démakpoé Voie CEDEAO",
          "phone": "+22822502447",
          "phone_formatted": "+228 22 50 24 47",
          "insurances": [],
          "coordinates": { "latitude": null, "longitude": null },
          "is_24h": false
        },
        {
          "id": "pharm_pharmacie_vitas_j1",
          "name": "Pharmacie Vitas",
          "address": "Située à Agoè Assiyéyé du côté ouest",
          "phone": "+2282256343",
          "phone_formatted": "+228 02 25 63 43",
          "insurances": [],
          "coordinates": { "latitude": null, "longitude": null },
          "is_24h": false
        }
      ]
    },
    {
      "zone_id": "J2",
      "zone_code": "ZONE J2",
      "zone_name": "AGOE ASSIYEYE - DEMAKPOE-LOGOPE- MINAMADOU",
      "city": "Lomé",
      "pharmacies": [
        {
          "id": "pharm_pharmacie_aureole_j2",
          "name": "Pharmacie Aureole",
          "address": "Agoe Trokpossimé au carrefour camp GP a 50m de l'EPP du camp GP",
          "phone": "+22870709898",
          "phone_formatted": "+228 70 70 98 98",
          "insurances": [],
          "coordinates": { "latitude": null, "longitude": null },
          "is_24h": false
        },
        {
          "id": "pharm_pharmacie_espace_vie_j2",
          "name": "Pharmacie Espace-Vie",
          "address": "AGOE Logopé non loin de place de Loisir BKS 2",
          "phone": "+22899858907",
          "phone_formatted": "+228 99 85 89 07",
          "insurances": ["Amu", "Cnss", "Inam"],
          "coordinates": { "latitude": null, "longitude": null },
          "is_24h": false
        }
      ]
    },
    {
      "zone_id": "K1",
      "zone_code": "ZONE K1",
      "zone_name": "SANGUERA KLEME- ZOSSIME-NANAGBE-ZOPOMAHE",
      "city": "Lomé",
      "pharmacies": [
        {
          "id": "pharm_pharmacie_sanguera_k1",
          "name": "Pharmacie Sanguera",
          "address": "Près du lycée Sanguera",
          "phone": "+22870428080",
          "phone_formatted": "+228 70 42 80 80",
          "insurances": ["Amu", "Ascoma", "Cnss", "Fidelia Assurance", "Gca", "Gras Savoye", "Inam", "La Citoyenne", "Lorica", "Nsia", "Olea", "Sanlam", "Sunu", "Transvie"],
          "coordinates": { "latitude": null, "longitude": null },
          "is_24h": false
        },
        {
          "id": "pharm_pharmacie_nelly's_k1",
          "name": "Pharmacie Nelly's",
          "address": "Klémé Agokpanou, non loin du château d'eau, sur la voie de Ségbé à Sanguéra",
          "phone": "+22892011100",
          "phone_formatted": "+228 92 01 11 00",
          "insurances": [],
          "coordinates": { "latitude": null, "longitude": null },
          "is_24h": false
        }
      ]
    },
    {
      "zone_id": "K2",
      "zone_code": "ZONE K2",
      "zone_name": "SANGUERA KLEME- ZOSSIME-NANAGBE-ZOPOMAHE",
      "city": "Lomé",
      "pharmacies": [
        {
          "id": "pharm_pharmacie_sag'biba_k2",
          "name": "Pharmacie Sag'biba",
          "address": "AGOE-Nanegbe à côté de la station T-Oil",
          "phone": "+22891838783",
          "phone_formatted": "+228 91 83 87 83",
          "insurances": [],
          "coordinates": { "latitude": null, "longitude": null },
          "is_24h": false
        },
        {
          "id": "pharm_pharmacie_la_shekina_k2",
          "name": "Pharmacie La Shekina",
          "address": "AGOE-NYIVE Qt Atiomé carrefour Amadenta",
          "phone": "+22893339205",
          "phone_formatted": "+228 93 33 92 05",
          "insurances": [],
          "coordinates": { "latitude": null, "longitude": null },
          "is_24h": false
        }
      ]
    },
    {
      "zone_id": "L1",
      "zone_code": "ZONE L1",
      "zone_name": "SOGBOSSITO- LEGBASSITO",
      "city": "Lomé",
      "pharmacies": [
        {
          "id": "pharm_pharmacie_a_dieu_la_gloire_l1",
          "name": "Pharmacie A Dieu La Gloire",
          "address": "Marché de Légbassito, à côté de la Poste, sur le grand contournement",
          "phone": "+22893263600",
          "phone_formatted": "+228 93 26 36 00",
          "insurances": [],
          "coordinates": { "latitude": null, "longitude": null },
          "is_24h": false
        },
        {
          "id": "pharm_pharmacie_observance_l1",
          "name": "Pharmacie Observance",
          "address": "SOGBOSSITO en face de la Station TOTAL ENERGIES a coté du CAMP BIR",
          "phone": "+22822504860",
          "phone_formatted": "+228 22 50 48 60",
          "insurances": [],
          "coordinates": { "latitude": null, "longitude": null },
          "is_24h": false
        }
      ]
    },
    {
      "zone_id": "M1",
      "zone_code": "ZONE M1",
      "zone_name": "BAGUIDA-AVEPOZO",
      "city": "Lomé",
      "pharmacies": [
        {
          "id": "pharm_pharmacie_hygea_m1",
          "name": "Pharmacie Hygea",
          "address": "Face Lycée Publique de Baguida route d'Afanoukopé",
          "phone": "+22899273636",
          "phone_formatted": "+228 99 27 36 36",
          "insurances": [],
          "coordinates": { "latitude": null, "longitude": null },
          "is_24h": false
        },
        {
          "id": "pharm_pharmacie_verseau_m1",
          "name": "Pharmacie Verseau",
          "address": "Pres de la maison Bateau de Baguida",
          "phone": "+22890019029",
          "phone_formatted": "+228 90 01 90 29",
          "insurances": [],
          "coordinates": { "latitude": null, "longitude": null },
          "is_24h": false
        },
        {
          "id": "pharm_pharmacie_flamme_d'amour_m1",
          "name": "Pharmacie Flamme D'amour",
          "address": "Qt Bobole kope - Kpogan non loin du cimetiere Zogbedjimonou",
          "phone": "+22870457014",
          "phone_formatted": "+228 70 45 70 14",
          "insurances": ["Amu", "Cnss", "Gras Savoye", "Gta-C2a", "Inam", "Msh", "Olea", "Sanlam", "Sunu", "Transvie"],
          "coordinates": { "latitude": null, "longitude": null },
          "is_24h": false
        }
      ]
    },
    {
      "zone_id": "N1",
      "zone_code": "ZONE N1",
      "zone_name": "DJAGBLE",
      "city": "Lomé",
      "pharmacies": [
        {
          "id": "pharm_pharmacie_helene_n1",
          "name": "Pharmacie Helene",
          "address": "Aveta face au marché d' Aveta",
          "phone": "+22896981515",
          "phone_formatted": "+228 96 98 15 15",
          "insurances": ["Amu", "Cnss"],
          "coordinates": { "latitude": null, "longitude": null },
          "is_24h": false
        },
        {
          "id": "pharm_pharmacie_lumen_n1",
          "name": "Pharmacie Lumen",
          "address": "DJAGBLE en face de l'EPP - Plakome",
          "phone": "+22870416836",
          "phone_formatted": "+228 70 41 68 36",
          "insurances": [],
          "coordinates": { "latitude": null, "longitude": null },
          "is_24h": false
        }
      ]
    },
    {
      "zone_id": "DAPAONG",
      "zone_code": "DAPAONG",
      "zone_name": "Dapaong",
      "city": "Dapaong",
      "pharmacies": [
        {
          "id": "pharm_pharmacie_sauveur_dapaong",
          "name": "Pharmacie Sauveur",
          "address": "non loin ECOBANK DAPAONG",
          "phone": "",
          "phone_formatted": "",
          "insurances": [],
          "coordinates": { "latitude": null, "longitude": null },
          "is_24h": false
        },
        {
          "id": "pharm_pharmacie_tone_dapaong",
          "name": "Pharmacie Tone",
          "address": "A coté du PSI Dapaong",
          "phone": "+22870210758",
          "phone_formatted": "+228 70 21 07 58",
          "insurances": ["Inam"],
          "coordinates": { "latitude": null, "longitude": null },
          "is_24h": false
        },
        {
          "id": "pharm_pharmacie_sambone_dapaong",
          "name": "Pharmacie Sambone",
          "address": "A WORGOU",
          "phone": "",
          "phone_formatted": "",
          "insurances": ["Amu", "Cnss", "Inam"],
          "coordinates": { "latitude": null, "longitude": null },
          "is_24h": false
        }
      ]
    },
    {
      "zone_id": "KARA",
      "zone_code": "KARA",
      "zone_name": "Kara",
      "city": "Kara",
      "pharmacies": [
        {
          "id": "pharm_pharmacie_renaissance_kara",
          "name": "Pharmacie Renaissance",
          "address": "Kara sud route Internationale n1",
          "phone": "+22892948087",
          "phone_formatted": "+228 92 94 80 87",
          "insurances": [],
          "coordinates": { "latitude": null, "longitude": null },
          "is_24h": false
        },
        {
          "id": "pharm_pharmacie_reconfort_kara",
          "name": "Pharmacie Reconfort",
          "address": "Quartier Tomde carrefour SOS",
          "phone": "+22893459393",
          "phone_formatted": "+228 93 45 93 93",
          "insurances": ["Amu", "Cnss", "Inam"],
          "coordinates": { "latitude": null, "longitude": null },
          "is_24h": false
        },
        {
          "id": "pharm_pharmacie_espoir_kara",
          "name": "Pharmacie Espoir",
          "address": "Derriére la mairie de KOZAH",
          "phone": "+22890094956",
          "phone_formatted": "+228 90 09 49 56",
          "insurances": [],
          "coordinates": { "latitude": null, "longitude": null },
          "is_24h": false
        }
      ]
    },
    {
      "zone_id": "KPALIME",
      "zone_code": "KPALIME",
      "zone_name": "Kpalimé",
      "city": "Kpalimé",
      "pharmacies": [
        {
          "id": "pharm_pharmacie_de_la_gare_kpalime",
          "name": "Pharmacie De La Gare",
          "address": "n face du Grand Marché Plateaux - BP 290 Kpalimé - Togo",
          "phone": "+22870794401",
          "phone_formatted": "+228 70 79 44 01",
          "insurances": [],
          "coordinates": { "latitude": null, "longitude": null },
          "is_24h": false
        },
        {
          "id": "pharm_pharmacie_la_perseverance_kpalime",
          "name": "Pharmacie La Perseverance",
          "address": "Atakpamékondji à côté de la Fucec Kkloto-siège",
          "phone": "+22890378280",
          "phone_formatted": "+228 90 37 82 80",
          "insurances": [],
          "coordinates": { "latitude": null, "longitude": null },
          "is_24h": false
        },
        {
          "id": "pharm_pharmacie_agou_kpalime",
          "name": "Pharmacie Agou",
          "address": "AGOU GADZEPE YOVO KOME Immeuble CIB INTA",
          "phone": "+22899716060",
          "phone_formatted": "+228 99 71 60 60",
          "insurances": ["Amu", "Cnss", "Inam"],
          "coordinates": { "latitude": null, "longitude": null },
          "is_24h": false
        }
      ]
    },
    {
      "zone_id": "SOKODE",
      "zone_code": "SOKODE",
      "zone_name": "Sokodé",
      "city": "Sokodé",
      "pharmacies": [
        {
          "id": "pharm_pharmacie_komah_sokode",
          "name": "Pharmacie Komah",
          "address": "Quartier KOMAH pres du Marché de Komah sur la route Sokodé-Tchamba",
          "phone": "+22891070614",
          "phone_formatted": "+228 91 07 06 14",
          "insurances": [],
          "coordinates": { "latitude": null, "longitude": null },
          "is_24h": false
        },
        {
          "id": "pharm_pharmacie_tchaoudjo_sokode",
          "name": "Pharmacie Tchaoudjo",
          "address": "Quartier Zongo sur la Nationale N1 pres du grand marché de Sokodé",
          "phone": "+22870499654",
          "phone_formatted": "+228 70 49 96 54",
          "insurances": [],
          "coordinates": { "latitude": null, "longitude": null },
          "is_24h": false
        },
        {
          "id": "pharm_pharmacie_luciole_sokode",
          "name": "Pharmacie Luciole",
          "address": "Quartier KOUAWORO sur la bretelle du contournement en face de l'Hôtel Fraternité",
          "phone": "+22871685151",
          "phone_formatted": "+228 71 68 51 51",
          "insurances": [],
          "coordinates": { "latitude": null, "longitude": null },
          "is_24h": false
        }
      ]
    }
  ],
  "cities": [
    { "name": "Lomé", "zones": ["A2", "A1", "A4", "A5", "B1", "B2", "B4", "B3", "C5", "C2", "C1", "C3", "C4", "D1", "E1", "E2", "E3", "F1", "F2", "F3", "G1", "G2", "G3", "H2", "H1", "I1", "I2", "J1", "J2", "K1", "K2", "L1", "M1", "N1"], "pharmacy_count": 48 },
    { "name": "Dapaong", "zones": ["DAPAONG"], "pharmacy_count": 3 },
    { "name": "Kara", "zones": ["KARA"], "pharmacy_count": 3 },
    { "name": "Kpalimé", "zones": ["KPALIME"], "pharmacy_count": 3 },
    { "name": "Sokodé", "zones": ["SOKODE"], "pharmacy_count": 3 }
  ]
}
